var pos_muni_py = [{"id_institucion":221340,"direccion":"14 de mayo y Luis F. Vache","tipoinstitucion":5,"nombre":"San Bernardino","latitud":"-25.308363","id_departamento":3,"nombre_oficial":"San Bernardino","longitud":"-57.299104","descripcion":"San Bernardino","telefono":"(0512) 232 460 - (0512) 232 212"},{"id_institucion":221342,"direccion":"San Francisco y Mcal. Jose F. Estigarribia","tipoinstitucion":5,"nombre":"Atyrá","latitud":"-25.278223","id_departamento":3,"nombre_oficial":"Atyrá","longitud":"-57.172292","descripcion":"Atyrá","telefono":"(520) 20188"},{"id_institucion":221343,"direccion":"Concepción y 14 de Mayo","tipoinstitucion":5,"nombre":"Tobatí","latitud":"-25.260126","id_departamento":3,"nombre_oficial":"Tobatí","longitud":"-57.081268","descripcion":"Tobatí","telefono":"(0516) 262 206"},{"id_institucion":221365,"direccion":"","tipoinstitucion":5,"nombre":"Ñumi","latitud":"-25.952299","id_departamento":4,"nombre_oficial":"Ñumi","longitud":"-56.328868","descripcion":"Ñumi","telefono":"(0543) 259 320"},{"id_institucion":221354,"direccion":"consul juan cancio flecla y ruta itacurubi","tipoinstitucion":5,"nombre":"Valenzuela","latitud":"-25.592461","id_departamento":3,"nombre_oficial":"Valenzuela","longitud":"-56.871677","descripcion":"Valenzuela","telefono":"(0516) 255 201"},{"id_institucion":221367,"direccion":"av niño salvador","tipoinstitucion":5,"nombre":"San Salvador","latitud":"-25.943777","id_departamento":4,"nombre_oficial":"San Salvador","longitud":"-56.471503","descripcion":"San Salvador","telefono":"0540-258-209"},{"id_institucion":221368,"direccion":"manuel ortiz guerrero c/ medalla milagrosa","tipoinstitucion":5,"nombre":"Tebykuary (tebicuary)","latitud":"-25.777352","id_departamento":4,"nombre_oficial":"Tebykuary (tebicuary)","longitud":"-56.647728","descripcion":"Tebykuary (tebicuary)","telefono":"(0553) 254 202"},{"id_institucion":221355,"direccion":"Avenida Guillerno Naumann","tipoinstitucion":5,"nombre":"Loma Grande","latitud":"-25.177614","id_departamento":3,"nombre_oficial":"Loma Grande","longitud":"-57.234835","descripcion":"Loma Grande","telefono":"(0516) 252 483-(021)3283575"},{"id_institucion":221344,"direccion":"Ruta 2 c /Capitan Aguilera","tipoinstitucion":5,"nombre":"Itacurubí de la Cordillera","latitud":"-25.461770","id_departamento":3,"nombre_oficial":"Itacurubí de la Cordillera","longitud":"-56.855132","descripcion":"Itacurubí de la Cordillera","telefono":"(0224) 632 575"},{"id_institucion":221376,"direccion":"Mcal. López y Fulgencio Yegros","tipoinstitucion":5,"nombre":"Caaguazú","latitud":"-25.470002","id_departamento":5,"nombre_oficial":"Caaguazú","longitud":"-56.019982","descripcion":"Caaguazú","telefono":"(522) 42393"},{"id_institucion":221380,"direccion":"15 de Agosto c/ 1ra. Junta Municipal","tipoinstitucion":5,"nombre":"Dr. J. Eulogio Estigarribia","latitud":"-25.371888","id_departamento":5,"nombre_oficial":"Dr. J. Eulogio Estigarribia","longitud":"-55.704085","descripcion":"Dr. J. Eulogio Estigarribia","telefono":"(0528) 222 301"},{"id_institucion":221345,"direccion":"Calle 4 de Octubre y Bernardino Caballero","tipoinstitucion":5,"nombre":"Arroyos y Esteros","latitud":"-25.055718","id_departamento":3,"nombre_oficial":"Arroyos y Esteros","longitud":"-57.095384","descripcion":"Arroyos y Esteros","telefono":"(0510) 272 114"},{"id_institucion":221381,"direccion":"","tipoinstitucion":5,"nombre":"Dr. Juan Manuel Frutos","latitud":"-25.383251","id_departamento":5,"nombre_oficial":"Dr. Juan Manuel Frutos","longitud":"-55.830288","descripcion":"Dr. Juan Manuel Frutos","telefono":"(0524) 225 207"},{"id_institucion":221458,"direccion":"Defensores del Chaco c/ Tte. Adolfo Martinez","tipoinstitucion":5,"nombre":"Itaguá","latitud":"-25.395614","id_departamento":10,"nombre_oficial":"Itaguá","longitud":"-57.354562","descripcion":"Itaguá","telefono":" (0294) 220 252"},{"id_institucion":221459,"direccion":"Mbocayaty c/ Ruta 1","tipoinstitucion":5,"nombre":"J. Augusto Saldivar","latitud":"-25.440372","id_departamento":10,"nombre_oficial":"J. Augusto Saldivar","longitud":"-57.441523","descripcion":"J. Augusto Saldivar","telefono":" (0295) 20402"},{"id_institucion":221460,"direccion":"Avenida Cacique Lambare","tipoinstitucion":5,"nombre":"Lambaré","latitud":"-25.341939","id_departamento":10,"nombre_oficial":"Lambaré","longitud":"-57.625435","descripcion":"Lambaré","telefono":"(021) 908 116/18"},{"id_institucion":221461,"direccion":"Av. San José y Capitán Medina","tipoinstitucion":5,"nombre":"Limpio","latitud":"-25.167363","id_departamento":10,"nombre_oficial":"Limpio","longitud":"-57.474549","descripcion":"Limpio","telefono":"(021) 708 206"},{"id_institucion":221462,"direccion":"Gral. Aquino esq. Rosario","tipoinstitucion":5,"nombre":"Luque","latitud":"-25.267186","id_departamento":10,"nombre_oficial":"Luque","longitud":"-57.492732","descripcion":"Luque","telefono":"(021) 642 215"},{"id_institucion":221357,"direccion":"","tipoinstitucion":5,"nombre":"San José Obrero","latitud":"-25.178973","id_departamento":3,"nombre_oficial":"San José Obrero","longitud":"-56.917650","descripcion":"San José Obrero","telefono":"(0516) 262 603 "},{"id_institucion":221388,"direccion":"Av. Principal R.I.3 Corrales esq. San Roque González de Santa Cruz","tipoinstitucion":5,"nombre":"R.I. 3 Corrales","latitud":"-25.340467","id_departamento":5,"nombre_oficial":"R.I. 3 Corrales","longitud":"-56.191444","descripcion":"R.I. 3 Corrales","telefono":"(530) 250104"},{"id_institucion":221389,"direccion":"Calle Pancha Garmendia","tipoinstitucion":5,"nombre":"San Joaquin","latitud":"-25.028682","id_departamento":5,"nombre_oficial":"San Joaquin","longitud":"-56.042637","descripcion":"San Joaquin","telefono":"(0530) 251 002"},{"id_institucion":221390,"direccion":"Gral. Díaz y Gral. Patricio Escobar","tipoinstitucion":5,"nombre":"San Jose de los Arroyos","latitud":"-25.533047","id_departamento":5,"nombre_oficial":"San Jose de los Arroyos","longitud":"-56.730298","descripcion":"San Jose de los Arroyos","telefono":"(0523) 230 230 – 230 – 695"},{"id_institucion":221463,"direccion":"Avda. Ballivian esq. Boquerón","tipoinstitucion":5,"nombre":"Mariano Roque Alonso","latitud":"-25.212401","id_departamento":10,"nombre_oficial":"Mariano Roque Alonso","longitud":"-57.532897","descripcion":"Mariano Roque Alonso","telefono":"021) 752 202 - (021) 750 158"},{"id_institucion":221464,"direccion":"Avda. Próceres de Mayo Nº 524 e/ Rodríguez de Francia","tipoinstitucion":5,"nombre":"Nueva Italia","latitud":"-25.611698","id_departamento":10,"nombre_oficial":"Nueva Italia","longitud":"-57.469397","descripcion":"Nueva Italia","telefono":"(0292) 935 218"},{"id_institucion":221466,"direccion":"Avda. San Antonio esq. Rio Tebicuary","tipoinstitucion":5,"nombre":"San Antonio","latitud":"-25.412690","id_departamento":10,"nombre_oficial":"San Antonio","longitud":"-57.573995","descripcion":"San Antonio","telefono":"(021) 991 135/6"},{"id_institucion":221467,"direccion":"San Lorenzo esquina España","tipoinstitucion":5,"nombre":"San Lorenzo","latitud":"-25.342390","id_departamento":10,"nombre_oficial":"San Lorenzo","longitud":"-57.509986","descripcion":"San Lorenzo","telefono":"(021) 570 000"},{"id_institucion":221400,"direccion":"Dr. Emiliano Paiva c/Colón","tipoinstitucion":5,"nombre":"Caazapa","latitud":"-26.196318","id_departamento":6,"nombre_oficial":"Caazapa","longitud":"-56.369050","descripcion":"Caazapa","telefono":"(0542) 232 201 - (0542) 232 686"},{"id_institucion":221402,"direccion":"Francia entre Tte. Octavio bosch y Pedro juan fariña","tipoinstitucion":5,"nombre":"Fulgencio Yegros","latitud":"-26.456122","id_departamento":6,"nombre_oficial":"Fulgencio Yegros","longitud":"-56.402885","descripcion":"Fulgencio Yegros","telefono":""},{"id_institucion":221468,"direccion":"Avenida Teniente Picco entre Calle Mariscal López y 16 de Julio Villa ElisaParagua","tipoinstitucion":5,"nombre":"Villa Elisa","latitud":"-25.375902","id_departamento":10,"nombre_oficial":"Villa Elisa","longitud":"-57.581381","descripcion":"Villa Elisa","telefono":"021 940-315 / 021 940-316"},{"id_institucion":221470,"direccion":"Yegros Nº 338 c/Mcal. Estigarribia Km 36","tipoinstitucion":5,"nombre":"Ypakaraí","latitud":"-25.401442","id_departamento":10,"nombre_oficial":"Ypakaraí","longitud":"-57.289213","descripcion":"Ypakaraí","telefono":"(0513) 432 267-0982-547660"},{"id_institucion":221471,"direccion":"Ruta Colonia Thompson - Villeta","tipoinstitucion":5,"nombre":"Ypané","latitud":"-25.459909","id_departamento":10,"nombre_oficial":"Ypané","longitud":"-57.507726","descripcion":"Ypané","telefono":"0275-32208"},{"id_institucion":221473,"direccion":"14 mayo y avd mcal lopez","tipoinstitucion":5,"nombre":"Alberdi","latitud":"-26.184915","id_departamento":11,"nombre_oficial":"Alberdi","longitud":"-58.143181","descripcion":"Alberdi","telefono":"(0780) 210 267"},{"id_institucion":221479,"direccion":"2 de mayo c/ San Atanacio","tipoinstitucion":5,"nombre":"Isla Umbú","latitud":"-26.983051","id_departamento":11,"nombre_oficial":"Isla Umbú","longitud":"-58.271286","descripcion":"Isla Umbú","telefono":"(086) 31 000 "},{"id_institucion":221346,"direccion":"avd Guillermo Naumann c/ camino nueva colombia-altos","tipoinstitucion":5,"nombre":"Nueva Colombia","latitud":"-25.189048","id_departamento":3,"nombre_oficial":"Nueva Colombia","longitud":"-57.305743","descripcion":"Nueva Colombia","telefono":"(0516) 252 189"},{"id_institucion":221350,"direccion":"Colón c/ Paí Prieto","tipoinstitucion":5,"nombre":"Emboscada","latitud":"-25.123896","id_departamento":3,"nombre_oficial":"Emboscada","longitud":"-57.347621","descripcion":"Emboscada","telefono":"(0529) 20 025 - (0529) 20 298"},{"id_institucion":221351,"direccion":"Ruta a Caraguatay c/ Acosta Ñu","tipoinstitucion":5,"nombre":"Eusebio Ayala","latitud":"-25.382913","id_departamento":3,"nombre_oficial":"Eusebio Ayala","longitud":"-56.966406","descripcion":"Eusebio Ayala","telefono":"(0514) 215 326"},{"id_institucion":221352,"direccion":"Tte. Orrego Quintana y 16 Oficiales","tipoinstitucion":5,"nombre":"Isla Pucú","latitud":"-25.311025","id_departamento":3,"nombre_oficial":"Isla Pucú","longitud":"-56.900865","descripcion":"Isla Pucú","telefono":"(0525) 200 005"},{"id_institucion":221434,"direccion":"Emiliano R. Fernandez c/ 8 de diciembre","tipoinstitucion":5,"nombre":"Tomas Romero Pereira","latitud":"-26.533973","id_departamento":7,"nombre_oficial":"Tomas  Romero Pereira","longitud":"-55.261673","descripcion":"Tomas  Romero Pereira","telefono":"(0764) 20144 - (0764) 20012"},{"id_institucion":221407,"direccion":"coronel martinez","tipoinstitucion":5,"nombre":"Yuty","latitud":"-26.613757","id_departamento":6,"nombre_oficial":"Yuty","longitud":"-56.248530","descripcion":"Yuty","telefono":"(0547) 257 445"},{"id_institucion":221410,"direccion":"","tipoinstitucion":5,"nombre":"Bella Vista","latitud":"-27.043071","id_departamento":7,"nombre_oficial":"Bella Vista","longitud":"-55.578194","descripcion":"Bella Vista","telefono":"(0767) 240219"},{"id_institucion":221411,"direccion":"Ruta 14 San Miguel Kurusú","tipoinstitucion":5,"nombre":"Cambyreta","latitud":"-27.345272","id_departamento":7,"nombre_oficial":"Cambyreta","longitud":"-55.822086","descripcion":"Cambyreta","telefono":"(0712) 12 340 - (0712) 12 341"},{"id_institucion":221412,"direccion":"","tipoinstitucion":5,"nombre":"Capitan Meza","latitud":"-26.831383","id_departamento":7,"nombre_oficial":"Capitan Meza","longitud":"-55.341351","descripcion":"Capitan Meza","telefono":"(0768) 295 166"},{"id_institucion":221415,"direccion":"","tipoinstitucion":5,"nombre":"Carmen del Parana","latitud":"-27.223907","id_departamento":7,"nombre_oficial":"Carmen del Parana","longitud":"-56.153388","descripcion":"Carmen del Parana","telefono":"(762) 260215"},{"id_institucion":221416,"direccion":"Mcal Estigarribia c/ avd pedro juan caballero","tipoinstitucion":5,"nombre":"Coronel Bogado","latitud":"-27.162503","id_departamento":7,"nombre_oficial":"Coronel Bogado","longitud":"-56.239411","descripcion":"Coronel Bogado","telefono":"(762) 260215"},{"id_institucion":221419,"direccion":"Colon c/ Ruta 8","tipoinstitucion":5,"nombre":"Gral. Artigas","latitud":"-26.932792","id_departamento":7,"nombre_oficial":"Gral. Artigas","longitud":"-56.222394","descripcion":"Gral. Artigas","telefono":"(0743) 20016/21"},{"id_institucion":221421,"direccion":"Guillermo Closs 2382 esq/ Doctores Zadoff","tipoinstitucion":5,"nombre":"Hohenau","latitud":"-27.083365","id_departamento":7,"nombre_oficial":"Hohenau","longitud":"-55.650117","descripcion":"Hohenau","telefono":"(0717) 20 026 - (0717) 20 020 - (0717) 20 021"},{"id_institucion":221424,"direccion":"","tipoinstitucion":5,"nombre":"La Paz","latitud":"-26.994180","id_departamento":7,"nombre_oficial":"La Paz","longitud":"-55.888191","descripcion":"La Paz","telefono":"(076) 320 021"},{"id_institucion":221425,"direccion":"","tipoinstitucion":5,"nombre":"Mayor Otoño","latitud":"-26.349731","id_departamento":7,"nombre_oficial":"Mayor Otoño","longitud":"-54.722492","descripcion":"Mayor Otoño","telefono":"(0671) 20096"},{"id_institucion":221428,"direccion":"Avda. Fulgencio Yegros Esq. Hernandarias","tipoinstitucion":5,"nombre":"Obligado","latitud":"-27.054553","id_departamento":7,"nombre_oficial":"Obligado","longitud":"-55.628565","descripcion":"Obligado","telefono":"0717 20245 (0717)20020 – (0717) 20021 – (0717) 20026 (0985) 920 255"},{"id_institucion":221429,"direccion":"Avda. Japón e/ Independencia","tipoinstitucion":5,"nombre":"Pirapo","latitud":"-26.858609","id_departamento":7,"nombre_oficial":"Pirapo","longitud":"-55.547606","descripcion":"Pirapo","telefono":"(0768) 245 502"},{"id_institucion":221430,"direccion":"carlos antonio lopez","tipoinstitucion":5,"nombre":"San Cosme y Damian","latitud":"-27.314412","id_departamento":7,"nombre_oficial":"San Cosme y Damian","longitud":"-56.334095","descripcion":"San Cosme y Damian","telefono":"(0732) 75250/3"},{"id_institucion":221432,"direccion":"Calle Paraná y Nicanor Torales","tipoinstitucion":5,"nombre":"San Pedro del Parana","latitud":"-26.834664","id_departamento":7,"nombre_oficial":"San Pedro del Parana","longitud":"-56.207675","descripcion":"San Pedro del Parana","telefono":"(0742) 20020 - 0742 - 20086"},{"id_institucion":221433,"direccion":"","tipoinstitucion":5,"nombre":"San Rafael del Parana","latitud":"-26.570599","id_departamento":7,"nombre_oficial":"San Rafael del Parana","longitud":"-54.988825","descripcion":"San Rafael del Parana","telefono":"(0770) 218 700"},{"id_institucion":221436,"direccion":"san juan c/ avd defensores del chaco","tipoinstitucion":5,"nombre":"Yatytay","latitud":"-26.674099","id_departamento":7,"nombre_oficial":"Yatytay","longitud":"-55.087692","descripcion":"Yatytay","telefono":"(0768) 245 509"},{"id_institucion":221437,"direccion":"","tipoinstitucion":5,"nombre":"San Juan Bautista","latitud":"-26.668181","id_departamento":8,"nombre_oficial":"San Juan Bautista","longitud":"-57.145957","descripcion":"San Juan Bautista","telefono":"(081) 212 235"},{"id_institucion":221439,"direccion":"Mcal. Lopéz y San Roque González","tipoinstitucion":5,"nombre":"San Ignacio Guazú","latitud":"-26.888220","id_departamento":8,"nombre_oficial":"San Ignacio Guazú","longitud":"-57.026146","descripcion":"San Ignacio Guazú","telefono":"(00595) 782 232581 / 232446"},{"id_institucion":221440,"direccion":"JUAN GONZALEZ Y","tipoinstitucion":5,"nombre":"San Miguel","latitud":"-26.534995","id_departamento":8,"nombre_oficial":"San Miguel","longitud":"-57.040203","descripcion":"San Miguel","telefono":"(0783) 248 205"},{"id_institucion":221441,"direccion":"Mariscal López esq Sinesio Cabrera","tipoinstitucion":5,"nombre":"San Patricio","latitud":"-26.978270","id_departamento":8,"nombre_oficial":"San Patricio","longitud":"-56.826889","descripcion":"San Patricio","telefono":"(0744) 280 278"},{"id_institucion":221443,"direccion":"Gral Diaz y 14 de mayo","tipoinstitucion":5,"nombre":"Santa Rosa de Lima","latitud":"-26.888331","id_departamento":8,"nombre_oficial":"Santa Rosa de Lima","longitud":"-56.847885","descripcion":"Santa Rosa de Lima","telefono":"(0858) 285 379"},{"id_institucion":221447,"direccion":"Avda. Bernardino Caballero y Pioneros del Este","tipoinstitucion":5,"nombre":"Ciudad del Este","latitud":"-25.513719","id_departamento":9,"nombre_oficial":"Ciudad del Este","longitud":"-54.614625","descripcion":"Ciudad del Este","telefono":"(061) 501 705 - (061) 501 706"},{"id_institucion":221448,"direccion":"","tipoinstitucion":5,"nombre":"Santa Rita","latitud":"-25.800548","id_departamento":9,"nombre_oficial":"Santa Rita","longitud":"-55.097036","descripcion":"Santa Rita","telefono":"(0673) 220 043"},{"id_institucion":221449,"direccion":"","tipoinstitucion":5,"nombre":"Naranjal","latitud":"-25.974746","id_departamento":9,"nombre_oficial":"Naranjal","longitud":"-55.180062","descripcion":"Naranjal","telefono":"(0676) 320 011"},{"id_institucion":221450,"direccion":"Avda. Cesar Gianotti","tipoinstitucion":5,"nombre":"Hernandarias","latitud":"-25.406611","id_departamento":9,"nombre_oficial":"Hernandarias","longitud":"-54.639194","descripcion":"Hernandarias","telefono":"(0631) 22 212 - (0631) 22 326 - (0631) 22 155"},{"id_institucion":221453,"direccion":"De la Candelaria c/ Fulgencio Yegros","tipoinstitucion":5,"nombre":"Aregua","latitud":"-25.310463","id_departamento":10,"nombre_oficial":"Aregua","longitud":"-57.382614","descripcion":"Aregua","telefono":"(0291) 432 501"},{"id_institucion":221454,"direccion":"Km 20 Ruta Mcal. Estigarribia","tipoinstitucion":5,"nombre":"Capiatá","latitud":"-25.354966","id_departamento":10,"nombre_oficial":"Capiatá","longitud":"-57.440697","descripcion":"Capiatá","telefono":"(228) 63472"},{"id_institucion":221455,"direccion":"Julia Miranda Cueto c/Rio Paraguay","tipoinstitucion":5,"nombre":"Fernando de la Mora","latitud":"-25.323387","id_departamento":10,"nombre_oficial":"Fernando de la Mora","longitud":"-57.555184","descripcion":"Fernando de la Mora","telefono":"595 (21) 500 007 / 9"},{"id_institucion":221456,"direccion":"Mcal. Estigarribia y Arsenio Vaesken","tipoinstitucion":5,"nombre":"Guarambaré","latitud":"-25.492014","id_departamento":10,"nombre_oficial":"Guarambaré","longitud":"-57.456621","descripcion":"Guarambaré","telefono":"(0293) 932 210 (0293) 932 367"},{"id_institucion":221457,"direccion":"Manuel Gamarra c/ San Blas","tipoinstitucion":5,"nombre":"Itá","latitud":"-25.511985","id_departamento":10,"nombre_oficial":"Itá","longitud":"-57.361652","descripcion":"Itá","telefono":"(0224) 632 575"},{"id_institucion":221307,"direccion":"Avda. Mcal. López 5556 c/ Cap. Pedro Villamayor","tipoinstitucion":5,"nombre":"Asunción","latitud":"-25.304586","id_departamento":0,"nombre_oficial":"Asunción","longitud":"-57.560542","descripcion":"Asunción","telefono":"(021) 663-311/20"},{"id_institucion":221490,"direccion":"Curupayty esq. Natalicio Talavera Nº 288","tipoinstitucion":5,"nombre":"Pedro Juan Caballero","latitud":"-22.540803","id_departamento":12,"nombre_oficial":"Pedro Juan Caballero","longitud":"-55.733906","descripcion":"Pedro Juan Caballero","telefono":"0333-272511 Fax: 0336-273785"},{"id_institucion":221498,"direccion":"Calle 24 de mayo esq. Luis Alberto del Paraná","tipoinstitucion":5,"nombre":"Katueté","latitud":"-24.247599","id_departamento":13,"nombre_oficial":"Katueté","longitud":"-54.757426","descripcion":"Katueté","telefono":"0471234100/101"},{"id_institucion":221499,"direccion":"Ruta 10 Las Residentas ","tipoinstitucion":5,"nombre":"La Paloma","latitud":"-24.131247","id_departamento":13,"nombre_oficial":"La Paloma","longitud":"-54.613753","descripcion":"La Paloma","telefono":"(047) 230 500 "},{"id_institucion":221500,"direccion":"Calle Cedro e/ yvyrapyta","tipoinstitucion":5,"nombre":"Nueva Esperanza","latitud":"-24.502440","id_departamento":13,"nombre_oficial":"Nueva Esperanza","longitud":"-54.856346","descripcion":"Nueva Esperanza","telefono":"(0464) 20120"},{"id_institucion":221506,"direccion":"Mariscal Francisco Solano López","tipoinstitucion":5,"nombre":"Villa Hayes","latitud":"-25.093373","id_departamento":14,"nombre_oficial":"Villa Hayes","longitud":"-57.521453","descripcion":"Villa Hayes","telefono":"(0226) 262 220 - (0226) 262 235"},{"id_institucion":221507,"direccion":"Ruta 9 Carlos A. López calle Nolasco Rojas y Mcal. López","tipoinstitucion":5,"nombre":"Benjamin Aceval","latitud":"-24.989802","id_departamento":14,"nombre_oficial":"Benjamin Aceval","longitud":"-57.555168","descripcion":"Benjamin Aceval","telefono":"(0271) 272 679 - (0271) 272 212 "},{"id_institucion":221512,"direccion":"Ruta Transchaco km. 389","tipoinstitucion":5,"nombre":"Tte. 1ro Manuel Irala Fernandez","latitud":"-22.812985","id_departamento":14,"nombre_oficial":"Tte. 1ro Manuel Irala Fernandez","longitud":"-59.586633","descripcion":"Tte. 1ro Manuel Irala Fernandez","telefono":""},{"id_institucion":221515,"direccion":"Av. J. J. Sanchez","tipoinstitucion":5,"nombre":"Bahía Negra","latitud":"-20.230408","id_departamento":15,"nombre_oficial":"Bahía Negra","longitud":"-58.168075","descripcion":"Bahía Negra","telefono":"(021) 452 127"},{"id_institucion":221308,"direccion":"Mcal. Estigarribia e/ Cerro Corá e Iturbe y Mcal. López","tipoinstitucion":5,"nombre":"Concepción","latitud":"-23.41391","id_departamento":1,"nombre_oficial":"Concepción","longitud":"-57.447634","descripcion":"Concepción","telefono":"(0331) 242 212"},{"id_institucion":221311,"direccion":"Mcal. López y Pdte Franco","tipoinstitucion":5,"nombre":"Horqueta","latitud":"-23.341446","id_departamento":1,"nombre_oficial":"Horqueta","longitud":"-57.049078","descripcion":"Horqueta","telefono":"(032) 222 252"},{"id_institucion":221313,"direccion":"Av. Padre Jesuita José Sánchez Labrador y Hernandez e/ Roque G. de Santa Cruz","tipoinstitucion":5,"nombre":"Belen","latitud":"-23.471140","id_departamento":1,"nombre_oficial":"Belen","longitud":"-57.261923","descripcion":"Belen","telefono":"(0331) 240 800"},{"id_institucion":221315,"direccion":"","tipoinstitucion":5,"nombre":"Paso Barreto","latitud":"-23.050337","id_departamento":1,"nombre_oficial":"Paso Barreto","longitud":"-57.122032","descripcion":"Paso Barreto","telefono":""},{"id_institucion":221319,"direccion":"braulio zelada c/ mcal Estigarribia","tipoinstitucion":5,"nombre":"San Pedro del Ycuamandyyu","latitud":"-24.092635","id_departamento":2,"nombre_oficial":"San Pedro del Ycuamandyyu","longitud":"-57.076398","descripcion":"San Pedro del Ycuamandyyu","telefono":"(0342) 222 802"},{"id_institucion":221330,"direccion":"Independencia Nacional e/Defensores del Chaco","tipoinstitucion":5,"nombre":"San Estanislao","latitud":"-24.666675","id_departamento":2,"nombre_oficial":"San Estanislao","longitud":"-56.443319","descripcion":"San Estanislao","telefono":"(0343) 420 454"},{"id_institucion":221331,"direccion":"","tipoinstitucion":5,"nombre":"San Pablo","latitud":"-24.103609","id_departamento":2,"nombre_oficial":"San Pablo","longitud":"-56.863945","descripcion":"San Pablo","telefono":""},{"id_institucion":221332,"direccion":"","tipoinstitucion":5,"nombre":"Santa Rosa del Aguaray","latitud":"-23.830133","id_departamento":2,"nombre_oficial":"Santa Rosa del Aguaray","longitud":"-56.522607","descripcion":"Santa Rosa del Aguaray","telefono":"(0451) 235 066"},{"id_institucion":221334,"direccion":"","tipoinstitucion":5,"nombre":"Unión","latitud":"-24.806107","id_departamento":2,"nombre_oficial":"Unión","longitud":"-56.520270","descripcion":"Unión","telefono":"(0350) 215 434"},{"id_institucion":221339,"direccion":"Padre Solís entre Boquerón y Alberdi","tipoinstitucion":5,"nombre":"Caacupé","latitud":"-25.386569","id_departamento":3,"nombre_oficial":"Caacupé","longitud":"-57.139081","descripcion":"Caacupé","telefono":"(0511) 242 382 - (0511) 242 367"},{"id_institucion":221312,"direccion":"","tipoinstitucion":5,"nombre":"San Alfredo","latitud":"-22.884896","id_departamento":1,"nombre_oficial":"San Alfredo","longitud":"-57.394512","descripcion":"San Alfredo","telefono":"(0984) 121001"},{"id_institucion":221359,"direccion":"CARLOS ANTONIO LOPEZ C/ MCAL ESTIGARRIBIA","tipoinstitucion":5,"nombre":"Villarica","latitud":"-25.780802","id_departamento":4,"nombre_oficial":"Villarica","longitud":"-56.446969","descripcion":"Villarica","telefono":"(0541) 42255"},{"id_institucion":221360,"direccion":"CNEL FELIX BOGADO C/CALLE VILLARICA","tipoinstitucion":5,"nombre":"Yataity","latitud":"-25.687993","id_departamento":4,"nombre_oficial":"Yataity","longitud":"-56.468996","descripcion":"Yataity","telefono":"(0549) 20003"}];